{
    "store": [
        {
            "title": "Abrakadabra - Pinheiros",
            "address": "Av. Rebouças, 2157 - Pinheiros",
            "city": "São Paulo",
            "state": "SP",
            "phone": "(11) 3062-0073 / (11) 3061-1743",
            "openOnHolidays": false,
            "businessHours": "Segunda a Sexta das 10h às 19h, Sábados das 10h às 18h",
            "email": "reboucas@abrakadabra.com.br",
            "latitude": -23.5659944,
            "longitude": -46.6810118
        },
        {
            "title": "Abrakadabra - Moema",
            "address": "Alameda Jauaperi 1352 - Moema",
            "city": "São Paulo",
            "state": "SP",
            "phone": "(11) 5049-3025 / (11) 5049-2701 - 5041-3384",
            "openOnHolidays": false,
            "businessHours": "Segunda a Sexta das 10h às 19h, Sábados das 10h às 18h",
            "email": "moema@abrakadabra.com.br",
            "latitude": -23.6075431,
            "longitude": -46.6697406
        },
        {
            "title": "Abrakadabra - Tatuapé",
            "address": "Rua Apucarana, 1220 - Tatuapé",
            "city": "São Paulo",
            "state": "SP",
            "phone": "(11) 2091-8601 / (11) 2091-9047",
            "openOnHolidays": false,
            "businessHours": "Segunda a Sexta das 10h às 19h, Sábados das 10h às 18h",
            "email": "tatuape@abrakadabra.com.br",
            "latitude": -23.5489794,
            "longitude": -46.5628888
        },
        {
            "title": "Abrakadabra - Água Branca",
            "address": "Rua Sara de Souza, 78 - Água Branca",
            "city": "São Paulo",
            "state": "SP",
            "phone": "(11) 3611-7374 / (11) 3611-3479",
            "openOnHolidays": false,
            "businessHours": "Segunda a Sexta das 09h às 18h30hs",
            "email": "sara@abrakadabra.com.br",
            "latitude": -23.5166425,
            "longitude": -46.6913611
        },
        {
            "title": "Abrakadabra - João Pessoa - Paraíba",
            "address":"Av. Vandik Pinto Filgueiras, 111- Tambauzinho",
            "city": "João Pessoa",
            "state": "PB",
            "phone": "(83) 3506-6486 / (83) 98701-0269",
            "openOnHolidays": false,
            "businessHours": "Segunda a Sexta das 09h às 18hs, Sábados das 9h às 13h",
            "email": "paraiba@abrakadabra.com.br",
            "latitude": -7.1207882,
            "longitude": -34.8432757
        },
        {
            "title": "Abrakadabra - Campinas - SP",
            "address": "Av. Anchieta, 1032 - Centro",
            "city": "Campinas",
            "state": "SP",
            "phone": "(19) 3367-1825 / (19) 3234-0847",
            "openOnHolidays": false,
            "businessHours": "Segunda a Sexta das 09h às 18hs, Sábados das 9h às 15h",
            "email": "campinas@abrakadabra.com.br",
            "latitude": -22.8949201,
            "longitude": -47.060506
        }
    ]
}
